{"_id":"drafts.118ffeb1077b7111ea044dd84eafa9a4","_type":"event","address":{"addressLine1":"200 Bayshore Drive (Coos Bay Boardwalk)","city":"Coos Bay","phoneFree":"800-200-5239","url":"https://www.historicalseaport.org/public-tours-sails/sailing-schedule/coos-bay-oregon/","zip":"97420"},"heroes":[{"_type":"hero.image","image":{"_sanityAsset":"image@https://www.oregonsadventurecoast.com/img/tall-ships-event-page-header.jpg","_type":"image"}}],"image":{"_sanityAsset":"image@https://www.oregonsadventurecoast.com/img/tall-ships-event-large.jpg","_type":"image"},"slug":{"_type":"slug","current":"lady-washington-hawaiian-chieftain-tall-ships"},"timeEnd":"2019-05-06T00:00:00.000+00:00","timeStart":"2019-05-01T00:00:00.000+00:00","title":"Lady Washington & Hawaiian Chieftain Tall Ships - REVISED SCHEDULE"}
{"_id":"a9483a6e67bad2f1d68500f40bd16649","_type":"event","address":{"addressLine1":"200 Central Ave","city":"Coos Bay","phone":"(541) 266-9706","url":"https://coosbaydowntown.com/blackberry-arts-festival/","zip":"97420"},"heroes":[{"_type":"hero.image","image":{"_sanityAsset":"image@https://www.oregonsadventurecoast.com/img/blackberry-hero-2048x530.jpg","_type":"image"}}],"image":{"_sanityAsset":"image@https://www.oregonsadventurecoast.com/img/blackberry-icecream-1024x395.jpg","_type":"image"},"slug":{"_type":"slug","current":"annual-blackberry-arts-festival"},"timeEnd":"2025-08-24","timeStart":"2025-08-23","title":"Annual Blackberry Arts Festival"}
{"_id":"9862a9056b05fc82ac53cac8681ad85e","_type":"event","address":{"city":"Coos Bay","phone":"541-267-0938","url":"http://www.oregoncoastmusic.org/","zip":"97420"},"heroes":[{"_type":"hero.image","image":{"_sanityAsset":"image@https://www.oregonsadventurecoast.com/img/ocma-full-orchestra-frankprice-hero.jpg","_type":"image"}}],"image":{"_sanityAsset":"image@https://www.oregonsadventurecoast.com/img/ocma-image-1024x395.jpg","_type":"image"},"slug":{"_type":"slug","current":"annual-oregon-coast-music-festival"},"timeEnd":"2025-07-26","timeStart":"2025-07-12","title":"Annual Oregon Coast Music Festival"}
{"_id":"99266b38908891fee3417503ee9f8e79","_type":"event","address":{"city":"North Bend","phone":"(541) 756-4613","url":"https://www.northbendoregon.us/pview.aspx?id=55056&catid=26","zip":"97549"},"heroes":[{"_type":"hero.image","image":{"_sanityAsset":"image@https://www.oregonsadventurecoast.com/img/our-area-north-bend-header.jpg","_type":"image"}}],"image":{"_sanityAsset":"image@https://www.oregonsadventurecoast.com/img/mcculloughbridge-north-bend-1024x395.jpg","_type":"image"},"slug":{"_type":"slug","current":"north-bend-july-jubilee"},"timeEnd":"2025-07-20","timeStart":"2025-07-18","title":"Annual July Jubilee"}
{"_id":"09e790ffca07b6f3d2548dc1b9bd56ee","_type":"event","address":{"addressLine1":"63466 Boat Basin Rd","city":"Charleston","phone":"541-888-4582","state":"OR","zip":"97420"},"heroes":[{"_type":"hero.image","image":{"_sanityAsset":"image@https://www.oregonsadventurecoast.com/img/aw-shucks-oyster-header.jpg","_type":"image"}}],"image":{"_sanityAsset":"image@https://www.oregonsadventurecoast.com/img/aw-shucks-oyster-Large.jpg","_type":"image"},"slug":{"_type":"slug","current":"ah-shucks-15th-annual-charleston-oyster-feed"},"timeEnd":"2020-04-25","timeStart":"2020-04-25","title":"Ah Shucks! 15th Annual Charleston Oyster Feed - CANCELLED"}
{"_id":"7743ac765166995121c743943d4ac726","_type":"event","address":{"addressLine1":"50 Central Ave.","city":"Coos Bay","phone":"(541) 266-9706","state":"Oregon","url":"https://coosbaydowntown.com/bay-area-fun-festival/","zip":"97420"},"heroes":[{"_type":"hero.image","image":{"_sanityAsset":"image@https://www.oregonsadventurecoast.com/img/funfest-2048x530.jpg","_type":"image"}}],"image":{"_sanityAsset":"image@https://www.oregonsadventurecoast.com/img/funfest-1024x395.jpg","_type":"image"},"slug":{"_type":"slug","current":"annual-bay-area-fun-festival"},"timeEnd":"2025-09-21","timeStart":"2025-09-20","title":"Annual Bay Area Fun Festival 2025"}
{"_id":"f512d8e966d072ef9356a273228ba0a7","_type":"event","address":{"addressLine1":"3201 Tremont St","city":"North Bend","phone":"541-756-8800","phoneFree":"800-953-4800","url":"https://www.kokwelresorts.com/coos-bay/","zip":"97459"},"heroes":[{"_type":"hero.image","image":{"_sanityAsset":"image@https://www.oregonsadventurecoast.com/img/bbq-blue-subpage-header.jpg","_type":"image"}}],"image":{"_sanityAsset":"image@https://www.oregonsadventurecoast.com/img/bbq-blues-event-large.jpg","_type":"image"},"seo":{"description":"The Mill's BBQ, Blues & Brews on the Bay has grown into one of The Mill's most attended events. Finger lickin’ good barbecue, hand-crafted beers and smokin’ hot tunes at the BBQ, Blues & Brews on the Bay, Memorial Day Weekend.","image":{"_sanityAsset":"image@https://www.oregonsadventurecoast.com/img/bbq-blues-event-medium.jpg","_type":"image"}},"slug":{"_type":"slug","current":"annual-bbq-blues-brews-on-the-bay"},"timeEnd":"2025-05-25","timeStart":"2025-05-24","title":"Annual BBQ, Blues & Brews on the Bay"}
{"_id":"8aa1359a6040fea465bd7a008f16b115","_type":"event","address":{"addressLine1":"Charleston's Marine Biology Institute","addressLine2":"63466 Boat Basin Road","city":"Charleston","phone":"541-260-6187","state":"OR","url":"https://charlestonoregon.org/","zip":"97420"},"heroes":[{"_type":"hero.image","image":{"_sanityAsset":"image@https://www.oregonsadventurecoast.com/img/crab-feed-sub-page-header.jpg","_type":"image"}}],"image":{"_sanityAsset":"image@https://www.oregonsadventurecoast.com/img/crab-feed-charleston-large.jpg","_type":"image"},"slug":{"_type":"slug","current":"annual-charleston-crab-feed"},"timeEnd":"2026-02-14","timeStart":"2026-02-14","title":"Annual Charleston Crab Feed"}
{"_id":"7db4d48f0e0ea1be54834362fc54f47e","_type":"event","address":{"addressLine1":"Boat Basin","city":"Charleston","phone":"541-888-2311","state":"OR","url":"https://charlestonseafoodfestival.com","zip":"97420"},"heroes":[{"_type":"hero.image","image":{"_sanityAsset":"image@https://www.oregonsadventurecoast.com/img/ch-seafood-fest2-2048x530.jpg","_type":"image"}}],"image":{"_sanityAsset":"image@https://www.oregonsadventurecoast.com/img/charleston-seafood-fest-large.jpg","_type":"image"},"seo":{},"slug":{"_type":"slug","current":"annual-charleston-seafood-festival"},"timeEnd":"2022-08-13","timeStart":"2022-08-11","title":"Annual Charleston Seafood Festival "}
{"_id":"4d273e50c6d1477fa6e2ed0941314085","_type":"event","address":{"addressLine1":"50 Central Avenue","city":"Coos Bay","phone":"(541) 297-0091","state":"OR","url":"https://cruzthecoos.com/","zip":"97420"},"heroes":[{"_type":"hero.image","image":{"_sanityAsset":"image@https://www.oregonsadventurecoast.com/img/cruz-coos-2048x530.jpg","_type":"image"}}],"image":{"_sanityAsset":"image@https://www.oregonsadventurecoast.com/img/cruz-1024x395.jpg","_type":"image"},"slug":{"_type":"slug","current":"annual-cruz-the-coos"},"timeEnd":"2025-09-20","timeStart":"2025-09-20","title":"Annual Cruz The Coos"}
{"_id":"81ad3201eacc69b925ecf69429ef7c04","_type":"event","address":{"addressLine1":"3201 Tremont St.","city":"North Bend","phone":"(541) 756-8800","state":"OR","url":"https://www.kokwelresorts.com/event/7th-annual-food-truck-off/","zip":"97459"},"heroes":[{"_type":"hero.image","image":{"_sanityAsset":"image@https://www.oregonsadventurecoast.com/img/truck-off-event-pg-header.jpg","_type":"image"}}],"image":{"_sanityAsset":"image@https://www.oregonsadventurecoast.com/img/truck-off-event-large.jpg","_type":"image"},"seo":{},"slug":{"_type":"slug","current":"the-ko-kwel-food-truck-off"},"timeEnd":"2025-08-03","timeStart":"2025-08-01","title":"Annual Food Truck Off at Ko-Kwel Casino Resort Coos Bay"}
{"_id":"28fca739d429d77a57c187d7cd5670fa","_type":"event","address":{"addressLine1":"3201 Tremont","city":"North Bend","coordinates":{"_type":"geopoint"},"phone":"541-756-8800","phoneFree":"800-953-4800","state":"OR","url":"https://www.kokwelresorts.com/coos-bay/","zip":"97459"},"heroes":[{"_type":"hero.image","image":{"_sanityAsset":"image@https://www.oregonsadventurecoast.com/img/tattoo-event-page-header-2048x530.jpg","_type":"image"}}],"image":{"_sanityAsset":"image@https://www.oregonsadventurecoast.com/img/tattoo-event-header-large.jpg","_type":"image"},"seo":{},"slug":{"_type":"slug","current":"annual-high-tide-tattoo-and-arts-festival"},"timeEnd":"2025-04-27","timeStart":"2025-04-25","title":"Annual High Tide Tattoo and Arts Festival"}
{"_id":"4c3c927c20948dae28ea8aed26029b7c","_type":"event","address":{"addressLine1":"89039 Cape Arago Hwy.","city":"Charleston","phone":"541-269-0215","state":"OR","url":"http://shoreacres.net/","zip":"97420"},"heroes":[{"_type":"hero.image","image":{"_sanityAsset":"image@https://www.oregonsadventurecoast.com/img/shore-acres-holiday-lights-header.jpg","_type":"image"}}],"image":{"_sanityAsset":"image@https://www.oregonsadventurecoast.com/img/holiday-lights-large.jpg","_type":"image"},"slug":{"_type":"slug","current":"annual-holiday-lights-at-shore-acres"},"timeEnd":"2025-12-31","timeStart":"2025-11-27","title":"Annual Holiday Lights at Shore Acres"}
{"_id":"8b995cd10965d3e12a32fa20080baedf","_type":"event","address":{"addressLine1":"1210 N. Front Street","city":"Coos Bay","coordinates":{"_type":"geopoint"},"url":"https://southcoastequity.org/scec-events/south-coast-equity-coalition-presents-the-3rd-annual-juneteenth-event","zip":"97420"},"heroes":[{"_type":"hero.image","image":{"_sanityAsset":"image@https://www.oregonsadventurecoast.com/img/coos-history-2048x530.jpg","_type":"image"}}],"image":{"_sanityAsset":"image@https://www.oregonsadventurecoast.com/img/juneteenth-flag-1024x395.jpg","_type":"image"},"seo":{},"slug":{"_type":"slug","current":"juneteenth-celebration"},"timeEnd":"2023-06-17","timeStart":"2023-06-17","title":"Annual Juneteenth Celebration"}
{"_id":"f272fc2233c3e8533833bb58ba38e60f","_type":"event","address":{"addressLine1":"235 Anderson Avenue","city":"Coos Bay","state":"OR","url":"https://prefontainerun.net/","zip":"97420"},"heroes":[{"_type":"hero.image","image":{"_sanityAsset":"image@https://www.oregonsadventurecoast.com/img/prefontaine-run-pg-header-2048x530.jpg","_type":"image"}}],"image":{"_sanityAsset":"image@https://www.oregonsadventurecoast.com/img/prefontaine-run-event-large.jpg","_type":"image"},"slug":{"_type":"slug","current":"annual-prefontaine-memorial-run"},"timeEnd":"2025-09-20","timeStart":"2025-09-20","title":"Annual Prefontaine Memorial Run"}
{"_id":"f718623c5c9da5ec8f4e3321058ad21a","_type":"event","address":{"addressLine1":"3201 Tremont Ave.","city":"North Bend","phone":"800-953-4800","phoneFree":"541-756-8800","state":"OR","url":"https://www.kokwelresorts.com/event/20th-annual-salmon-celebration/","zip":"97459"},"heroes":[{"_type":"hero.image","image":{"_sanityAsset":"image@https://www.oregonsadventurecoast.com/img/salmon-image-02.jpg","_type":"image"}}],"image":{"_sanityAsset":"image@https://www.oregonsadventurecoast.com/img/salmon-celebration-large.jpg","_type":"image"},"slug":{"_type":"slug","current":"salmon-celebration"},"timeEnd":"2025-09-14","timeStart":"2025-09-13","title":"Annual Salmon Celebration"}
{"_id":"f19bb7b66274b2c6f89e268e5ffbde08","_type":"event","address":{"addressLine1":"229 South Broadway","city":"Coos Bay","phone":"541-808-8295","state":"Oregon","url":"https://www.egyptiantheatre.events","zip":"97420"},"heroes":[{"_type":"hero.image","image":{"_sanityAsset":"image@https://www.oregonsadventurecoast.com/img/batman-sub-page-header-2048x530.jpg","_type":"image"}}],"image":{"_sanityAsset":"image@https://www.oregonsadventurecoast.com/img/batman-large-event-banner.jpg","_type":"image"},"slug":{"_type":"slug","current":"batman-film-festival-weekend"},"timeEnd":"2025-05-18","timeStart":"2025-05-16","title":"Batman Weekend Film Festival"}
{"_id":"cb786c8b0a963f5008e07e3ff8eca3cf","_type":"event","address":{"addressLine1":"Marshfield Channel","city":"Coos Bay","phone":"(541) 269-0215","url":"http://www.oregonsadventurecoast.com"},"heroes":[{"_type":"hero.image","image":{"_sanityAsset":"image@https://www.oregonsadventurecoast.com/img/fireworks-event-page-header.jpg","_type":"image"}}],"image":{"_sanityAsset":"image@https://www.oregonsadventurecoast.com/img/fireworks-event-large.jpg","_type":"image"},"slug":{"_type":"slug","current":"bay-area-fireworks-extravaganza-on-oregon-s-adventure-coast"},"timeEnd":"2021-07-03","timeStart":"2021-07-03","title":"Bay Area Fireworks Extravaganza on Oregon's Adventure Coast"}
{"_id":"3279372b4452fd46ae55a74cd46169fe","_type":"event","address":{"addressLine1":"229 South Broadway","city":"Coos Bay","phone":"541-808-8295","state":"Oregon","url":"https://www.egyptiantheatre.events","zip":"97420"},"heroes":[{"_type":"hero.image","image":{"_sanityAsset":"image@https://www.oregonsadventurecoast.com/img/christmas-in-july-page-hdr-2048-530.jpg","_type":"image"}}],"image":{"_sanityAsset":"image@https://www.oregonsadventurecoast.com/img/christmas-july-cover-large.jpg","_type":"image"},"slug":{"_type":"slug","current":"christmas-in-july-film-festival"},"timeEnd":"2025-07-26","timeStart":"2025-07-25","title":"Christmas in July Film Festival"}
{"_id":"95ef08a9a6c238cb2ab5ed2ba52271ba","_type":"event","address":{"addressLine1":"745 California Ave","city":"North Bend","phone":"(541) 756-4613","state":"OR","url":"www.northbendoregon.us/christmas","zip":"97459"},"heroes":[{"_type":"hero.image","image":{"_sanityAsset":"image@https://www.oregonsadventurecoast.com/img/lightedfiretruck-2048x530.jpg","_type":"image"}}],"image":{"_sanityAsset":"image@https://www.oregonsadventurecoast.com/img/lightedfiretruck-1024x395.jpg","_type":"image"},"slug":{"_type":"slug","current":"christmas-on-main-north-bend"},"timeEnd":"2025-12-06","timeStart":"2025-12-06","title":"Christmas on Main - North Bend"}
{"_id":"a67efe13897d8a81e702df5469462a9d","_type":"event","address":{"addressLine1":"496 Park Ave","city":"North Bend","coordinates":{"_type":"geopoint"},"phone":"541-260-3298 ","state":"OR","url":"https://southcoastrunningclub.org/circle-the-bay/","zip":"97459"},"heroes":[{"_type":"hero.image","image":{"_sanityAsset":"image@https://www.oregonsadventurecoast.com/img/circle-the-bay-page-header-2048x50.jpg","_type":"image"}}],"image":{"_sanityAsset":"image@https://www.oregonsadventurecoast.com/img/circlebay-1024x395.jpg","_type":"image"},"seo":{},"slug":{"_type":"slug","current":"circle-the-bay-30k"},"timeEnd":"2025-08-09","timeStart":"2025-08-09","title":"Circle the Bay 30K"}
{"_id":"ef18e89cef7b1af2b0beb29a5a521ad7","_type":"event","address":{"addressLine1":"50 Central Ave","city":"Coos Bay","phone":"5412972432","phoneFree":"541-269-0215","url":"https://coosbaydowntown.org/holiday-events-in-downtown-2/","zip":"97420"},"heroes":[{"_type":"hero.image","image":{"_sanityAsset":"image@https://www.oregonsadventurecoast.com/img/north-bend-tree-lighting-event-sub-header.jpg","_type":"image"}}],"image":{"_sanityAsset":"image@https://www.oregonsadventurecoast.com/img/tree-lighting-coosbay-1024x395.jpg","_type":"image"},"seo":{},"slug":{"_type":"slug","current":"coos-bay-tree-lighting-visit-from-santa-and-elf"},"timeEnd":"2019-11-29","timeStart":"2019-11-29","title":"Coos Bay Tree Lighting, Visit from Santa and \"ELF\"!"}
{"_id":"72853e03004428de5b9b0939d68d2939","_type":"event","address":{"city":"Coos Bay, North Bend, Empire, Charleston","coordinates":{"_type":"geopoint"},"phone":"541-269-0215"},"heroes":[{"_type":"hero.image","image":{"_sanityAsset":"image@https://www.oregonsadventurecoast.com/img/holiday-events-2048x530.jpg","_type":"image"}}],"image":{"_sanityAsset":"image@https://www.oregonsadventurecoast.com/img/holiday-happenings-event-large.jpg","_type":"image"},"seo":{},"slug":{"_type":"slug","current":"holiday-happenings-tree-lightings-on-oregon-s-adventure-coast"},"timeEnd":"2026-01-01","timeStart":"2025-11-29","title":"Holiday Happenings & Tree Lightings on Oregon's Adventure Coast!"}
{"_id":"437b0f468f4a5b946bdbdb20eb1b1adc","_type":"event","address":{"addressLine1":"2040 Union Avenue","city":"North Bend","coordinates":{"_type":"geopoint"},"phone":"541-756-8536","state":"OR","url":"https://www.northbendoregon.us/IceSkatingRink","zip":"97459"},"heroes":[{"_type":"hero.image","image":{"_sanityAsset":"image@https://www.oregonsadventurecoast.com/img/ice-rink-line-of-skaters-2048x530.jpg","_type":"image"}}],"image":{"_sanityAsset":"image@https://www.oregonsadventurecoast.com/img/ice-rink-line-of-skaters-1024x395.jpg","_type":"image"},"seo":{},"slug":{"_type":"slug","current":"ice-skating-in-north-bend"},"timeEnd":"2026-01-31","timeStart":"2025-11-15","title":"Ice Skating in North Bend!"}
{"_id":"85bcad6cd8be153328494594cb668572","_type":"event","address":{"addressLine1":"Shore Acres State Park ","addressLine2":"89039 Cape Arago Hwy","city":"Charleston","coordinates":{"_type":"geopoint"},"phone":"503-308-2921","state":"OR","url":"https://www.inalandscape.org/","zip":"97420"},"heroes":[{"_type":"hero.image","image":{"_sanityAsset":"image@https://www.oregonsadventurecoast.com/img/inalandscape-2048x530.jpg","_type":"image"}}],"image":{"_sanityAsset":"image@https://www.oregonsadventurecoast.com/img/landscape1024x395.jpg","_type":"image"},"seo":{},"slug":{"_type":"slug","current":"in-a-landscape-classical-music-in-the-wild"},"timeEnd":"2025-09-07","timeStart":"2025-09-06","title":"IN A LANDSCAPE: Classical Music in the Wild"}
{"_id":"824cb725aca31488b248314c11cc561e","_type":"event","address":{"phone":"(541) 269-0215"},"heroes":[{"_type":"hero.image","image":{"_sanityAsset":"image@https://www.oregonsadventurecoast.com/img/fireworks-event-page-header.jpg","_type":"image"}}],"image":{"_sanityAsset":"image@https://www.oregonsadventurecoast.com/img/fireworks-event-large.jpg","_type":"image"},"slug":{"_type":"slug","current":"july-3rd-4th-fireworks-over-the-bay"},"timeEnd":"2025-07-04","timeStart":"2025-07-03","title":"July 3rd & 4th Fireworks Over The Bay"}
{"_id":"ee6de9bfb3281efa25beb70c29a0e920","_type":"event","address":{"addressLine1":"NORTH BEND COMMUNITY CENTER ","addressLine2":"2222 Broadway Ave","city":"North Bend","phone":"(541) 756-4613","zip":"97459"},"heroes":[{"_type":"hero.image","image":{"_sanityAsset":"image@https://www.oregonsadventurecoast.com/img/north-bend-tree-lighting-event-sub-header.jpg","_type":"image"}}],"image":{"_sanityAsset":"image@https://www.oregonsadventurecoast.com/img/nb-tree-lighting-trucks-large.jpg","_type":"image"},"seo":{},"slug":{"_type":"slug","current":"north-bend-tree-lighting-and-lighted-parade"},"timeEnd":"2019-12-07","timeStart":"2019-12-07","title":"North Bend Tree Lighting and Lighted Parade"}
{"_id":"226b6634ec9bb6f04485352155b2c203","_type":"event","address":{"addressLine1":"63466 Boat Basin Road","city":"Charleston","state":"Oregon","zip":"97420"},"heroes":[{"_type":"hero.image","image":{"_sanityAsset":"image@https://www.oregonsadventurecoast.com/img/charleston-marina-2048x530.jpg","_type":"image"}}],"image":{"_sanityAsset":"image@https://www.oregonsadventurecoast.com/img/octoberfish-gathering-1024x395.jpg","_type":"image"},"slug":{"_type":"slug","current":"octoberfish"},"timeEnd":"2025-10-04","timeStart":"2025-10-04","title":"Octoberfish & Seafood Festival"}
{"_id":"351e3c2d3cb0a425a6abbc23f34a3d1c","_type":"event","address":{"addressLine1":"1210 N Front Street","city":"Coos Bay","phone":"541-756-6320","state":"OR","url":"https://cooshistory.org/annual-fundraiser-2025-oktoberfest/","zip":"97420"},"heroes":[{"_type":"hero.image","image":{"_sanityAsset":"image@https://www.oregonsadventurecoast.com/img/oktoberfest2048x530.jpg","_type":"image"}}],"image":{"_sanityAsset":"image@https://www.oregonsadventurecoast.com/img/oktoberfest1024x395.jpg","_type":"image"},"slug":{"_type":"slug","current":"oktoberfest"},"timeEnd":"2025-09-27","timeStart":"2025-09-27","title":"Oktoberfest at Coos History Museum"}
{"_id":"b6ba4895a33e578945cf4ed04c9b2ca3","_type":"event","address":{"addressLine1":"Pony Village Mall","addressLine2":"1611 Virginia Ave","city":"North Bend","phone":"541-266-0868","state":"OR","url":"https://oregonsbayarea.org/#","zip":"97459"},"heroes":[{"_type":"hero.image","image":{"_sanityAsset":"image@https://www.oregonsadventurecoast.com/img/homeshow-2048x530.jpg","_type":"image"}}],"image":{"_sanityAsset":"image@https://www.oregonsadventurecoast.com/img/homeshow-1024x395.jpg","_type":"image"},"slug":{"_type":"slug","current":"oregon-s-bay-area-home-show"},"timeEnd":"2025-04-27","timeStart":"2025-04-25","title":"Oregon's Bay Area Home Show"}
{"_id":"d21b9945ee0ea2d9ed631762511a46f6","_type":"event","address":{"coordinates":{"_type":"geopoint"},"phone":"5412690215","state":"OR","url":"https://www.osaa.org/","zip":"97420"},"heroes":[{"_type":"hero.image","image":{"_sanityAsset":"image@https://www.oregonsadventurecoast.com/img/basketball-hero-header-2048x530.jpg","_type":"image"}}],"image":{"_sanityAsset":"image@https://www.oregonsadventurecoast.com/img/mhs-3a-court.jpg","_type":"image"},"seo":{},"slug":{"_type":"slug","current":"osaa-3a-basketball-state-championship-tournament"},"timeEnd":"2023-03-04","timeStart":"2023-03-02","title":"OSAA 3A Basketball State Championship Tournament"}
{"_id":"4903f46ae529669e058835336a39af77","_type":"event","address":{"addressLine1":"229 South Broadway","city":"Coos Bay","phone":"541-808-8295","state":"Oregon","url":"https://www.egyptiantheatre.events/","zip":"97420"},"heroes":[{"_type":"hero.image","image":{"_sanityAsset":"image@https://www.oregonsadventurecoast.com/img/oscar-shorts-page-sub-hdr-2048x530.jpg","_type":"image"}}],"image":{"_sanityAsset":"image@https://www.oregonsadventurecoast.com/img/oscarshorts-lg-1024x395.jpg","_type":"image"},"slug":{"_type":"slug","current":"oscar-short-film-festival"},"timeEnd":"2025-02-23","timeStart":"2025-02-21","title":"OSCAR Short Film Festival"}
{"_id":"88b0851038227f9a21f0fe92077acc98","_type":"event","address":{"addressLine1":"Whiskey Run Road","addressLine2":"At 7 Devils Road","coordinates":{"_type":"geopoint","lat":43.21916599504912,"lng":-124.34224036666316},"state":"Oregon","url":"https://www.thedirtwave.com/whiskey-run/"},"heroes":[{"_type":"hero.image","image":{"_sanityAsset":"image@https://www.oregonsadventurecoast.com/img/whiskeyrun13-2048x530.jpg","_type":"image"}}],"image":{"_sanityAsset":"image@https://www.oregonsadventurecoast.com/img/whiskeyrun8-1024x395.jpg","_type":"image"},"slug":{"_type":"slug","current":"ride-the-dirt-wave-whiskey-run"},"timeEnd":"2025-07-20","timeStart":"2025-07-19","title":"Ride the Dirt Wave - Whiskey Run"}
{"_id":"881c2de8748594478120c0a986961232","_type":"event","address":{"addressLine1":"1210 N. Front","city":"Coos Bay","coordinates":{"_type":"geopoint"},"phone":"541-260-3298 ","state":"OR","url":"https://southcoastrunningclub.org/roseburg-to-coos-bay-relay/","zip":"97420"},"heroes":[{"_type":"hero.image","image":{"_sanityAsset":"image@https://www.oregonsadventurecoast.com/img/prerun-hero-2048x530.jpg","_type":"image"}}],"image":{"_sanityAsset":"image@https://www.oregonsadventurecoast.com/img/prerun-legs-1024x395.jpg","_type":"image"},"seo":{},"slug":{"_type":"slug","current":"roseburg-to-coos-bay-relay"},"timeEnd":"2025-04-26","timeStart":"2025-04-26","title":"Roseburg To Coos Bay Relay"}
{"_id":"8de764f8d1af00c28ca93192169f4aa7","_type":"event","address":{"addressLine1":"Whiskey Run Mountain Bike Trail and Charleston Area","city":"Charleson","phone":"541-260-3298 ","url":"https://southcoastrunningclub.org/run-whiskey-run/"},"heroes":[{"_type":"hero.image","image":{"_sanityAsset":"image@https://www.oregonsadventurecoast.com/img/runninginforest-2048x530.jpg","_type":"image"}}],"image":{"_sanityAsset":"image@https://www.oregonsadventurecoast.com/img/runninginforest-1024x395.jpg","_type":"image"},"slug":{"_type":"slug","current":"run-whiskey-run-and-clean-up-fun-run"},"timeEnd":"2025-10-11","timeStart":"2025-10-11","title":"Run Whiskey Run"}
{"_id":"985899645c180afb74928612a8d67978","_type":"event","address":{"addressLine1":"The Mill Casino • Hotel & RV Park","addressLine2":"3201 Tremont Avenue","city":"North Bend","state":"Oregon","url":"https://clambakemusic.com/","zip":"97459"},"heroes":[{"_type":"hero.image","image":{"_sanityAsset":"image@https://www.oregonsadventurecoast.com/img/clambake-music-fest-header-03.jpg","_type":"image"}}],"image":{"_sanityAsset":"image@https://www.oregonsadventurecoast.com/img/clambake-music-fest-large.jpg","_type":"image"},"seo":{"description":"Polish up those dancin’ shoes and get ready for the exciting musical extravaganza known as the South Coast Clambake Music Festival! The Clambake Music Festival features incredible music that ranges from traditional jazz to 50’s rock, including swing, doo-wop, blues, big band and Zydeco! ","image":{"_sanityAsset":"image@https://www.oregonsadventurecoast.com/img/clambake-music-fest-medium-03.jpg","_type":"image"}},"slug":{"_type":"slug","current":"south-coast-clambake-music-festival"},"timeEnd":"2026-03-15","timeStart":"2026-03-12","title":"South Coast Clambake Music Festival "}
{"_id":"f881f255e82bd37d680b593031d867bc","_type":"event","address":{"addressLine1":"229 South Broadway","city":"Coos Bay","phone":"541-808-8295","state":"Oregon","url":"https://www.egyptiantheatre.events","zip":"97420"},"heroes":[{"_type":"hero.image","image":{"_sanityAsset":"image@https://www.oregonsadventurecoast.com/img/star-trek-marathon-subhdr-2048x530.jpg","_type":"image"}}],"image":{"_sanityAsset":"image@https://www.oregonsadventurecoast.com/img/star-trek-cover-large.jpg","_type":"image"},"slug":{"_type":"slug","current":"star-trek-film-festival-marathon"},"timeEnd":"2025-09-06","timeStart":"2025-09-05","title":"Star Trek Film Festival Weekend"}
{"_id":"ab1379ed204462e25177d33bd25b6d69","_type":"event","address":{"addressLine1":"Boxcar Hill Campground ","addressLine2":"92799 Trans Pacific Parkway","city":"North Bend","coordinates":{"_type":"geopoint"},"state":"OR","url":"https://www.utvtakeover.com/coos-bay-or/","zip":"97459"},"heroes":[{"_type":"hero.image","image":{"_sanityAsset":"image@https://www.oregonsadventurecoast.com/img/event-dunes-pg-header.jpg","_type":"image"}}],"image":{"_sanityAsset":"image@https://www.oregonsadventurecoast.com/img/dunes-event-large.jpg","_type":"image"},"seo":{},"slug":{"_type":"slug","current":"utv-takeover"},"timeEnd":"2025-06-29","timeStart":"2025-06-24","title":"UTV TakeOver 2025"}
{"_id":"6d9b925ca8563bf8abfe9ee7db19d092","_type":"event","address":{"addressLine1":"Whiskey Run Road in Coos County Forest","city":"Coos County","coordinates":{"_type":"geopoint"},"state":"OR","url":"www.GetMeRegistered.com/WhiskeyRunFestival"},"heroes":[{"_type":"hero.image","image":{"_sanityAsset":"image@https://www.oregonsadventurecoast.com/img/whiskeyrun13-2048x530.jpg","_type":"image"}}],"image":{"_sanityAsset":"image@https://www.oregonsadventurecoast.com/img/whiskey-run-event-large.jpg","_type":"image"},"seo":{},"slug":{"_type":"slug","current":"whiskey-run-mountain-biking-festival"},"timeEnd":"2022-06-05","timeStart":"2022-06-04","title":"Whiskey Run Mountain Bike Festival"}
